{"type":"FeatureCollection","features":[{"type":"Feature","geometry":{"type":"Point","coordinates":[2.313772157405782,48.89425226223873]},"properties":{"nom_gares":"Porte de Clichy","indice_lig":"13"}},{"type":"Feature","geometry":{"type":"Point","coordinates":[2.228536981491632,48.84074501612618]},"properties":{"nom_gares":"Boulogne - Pont de Saint-Cloud","indice_lig":"10"}},{"type":"Feature","geometry":{"type":"Point","coordinates":[2.3710948397312,48.86995751270301]},"properties":{"nom_gares":"Goncourt","indice_lig":"11"}},{"type":"Feature","geometry":{"type":"Point","coordinates":[2.294685111702555,48.916382309922106]},"properties":{"nom_gares":"Gabriel Péri","indice_lig":"13"}},{"type":"Feature","geometry":{"type":"Point","coordinates":[2.312447513065986,48.842871275006345]},"properties":{"nom_gares":"Pasteur","indice_lig":"12"}},{"type":"Feature","geometry":{"type":"Point","coordinates":[2.337495844533765,48.876047496005405]},"properties":{"nom_gares":"Notre-Dame-de-Lorette","indice_lig":"12"}},{"type":"Feature","geometry":{"type":"Point","coordinates":[2.361524965507838,48.85162059096899]},"properties":{"nom_gares":"Sully-Morland","indice_lig":"7"}},{"type":"Feature","geometry":{"type":"Point","coordinates":[2.25712222983262,48.83796121443632]},"properties":{"nom_gares":"Porte de Saint-Cloud","indice_lig":"9"}},{"type":"Feature","geometry":{"type":"Point","coordinates":[2.385316215101792,48.87388185415816]},"properties":{"nom_gares":"Pyrénées","indice_lig":"11"}},{"type":"Feature","geometry":{"type":"Point","coordinates":[2.358047505360746,48.87612635294891]},"properties":{"nom_gares":"Gare de l'Est","indice_lig":"5"}},{"type":"Feature","geometry":{"type":"Point","coordinates":[2.324397012385794,48.84378130573586]},"properties":{"nom_gares":"Montparnasse-Bienvenüe","indice_lig":"4"}},{"type":"Feature","geometry":{"type":"Point","coordinates":[2.398468172268172,48.880271957029535]},"properties":{"nom_gares":"Pré Saint-Gervais","indice_lig":"7b"}},{"type":"Feature","geometry":{"type":"Point","coordinates":[2.325815566511529,48.85519632481491]},"properties":{"nom_gares":"Rue du Bac","indice_lig":"12"}},{"type":"Feature","geometry":{"type":"Point","coordinates":[2.279411682050421,48.82708544889644]},"properties":{"nom_gares":"Corentin Celton","indice_lig":"12"}},{"type":"Feature","geometry":{"type":"Point","coordinates":[2.282143378170892,48.83873485883676]},"properties":{"nom_gares":"Lourmel","indice_lig":"8"}},{"type":"Feature","geometry":{"type":"Point","coordinates":[2.365581702747743,48.84236008246694]},"properties":{"nom_gares":"Gare d'Austerlitz","indice_lig":"5"}},{"type":"Feature","geometry":{"type":"Point","coordinates":[2.373774422563834,48.84586897868619]},"properties":{"nom_gares":"Gare de Lyon","indice_lig":"1"}},{"type":"Feature","geometry":{"type":"Point","coordinates":[2.345803056189527,48.859287325170946]},"properties":{"nom_gares":"Châtelet","indice_lig":"1"}},{"type":"Feature","geometry":{"type":"Point","coordinates":[2.360967167698855,48.83842729696758]},"properties":{"nom_gares":"Saint-Marcel","indice_lig":"5"}},{"type":"Feature","geometry":{"type":"Point","coordinates":[2.367804105603498,48.78756279294567]},"properties":{"nom_gares":"Villejuif - Louis Aragon","indice_lig":"7"}},{"type":"Feature","geometry":{"type":"Point","coordinates":[2.308773835955807,48.88032518647405]},"properties":{"nom_gares":"Monceau","indice_lig":"2"}},{"type":"Feature","geometry":{"type":"Point","coordinates":[2.385913174273276,48.886856931501875]},"properties":{"nom_gares":"Ourcq","indice_lig":"5"}},{"type":"Feature","geometry":{"type":"Point","coordinates":[2.401289019827348,48.84506157994489]},"properties":{"nom_gares":"Picpus","indice_lig":"6"}},{"type":"Feature","geometry":{"type":"Point","coordinates":[2.309052264550479,48.88289191745414]},"properties":{"nom_gares":"Malesherbes","indice_lig":"3"}},{"type":"Feature","geometry":{"type":"Point","coordinates":[2.277083018415725,48.87146657813589]},"properties":{"nom_gares":"Porte Dauphine","indice_lig":"2"}},{"type":"Feature","geometry":{"type":"Point","coordinates":[2.330129877112862,48.86434377873392]},"properties":{"nom_gares":"Tuileries","indice_lig":"1"}},{"type":"Feature","geometry":{"type":"Point","coordinates":[2.36196530222996,48.87844430039445]},"properties":{"nom_gares":"Château-Landon","indice_lig":"7"}},{"type":"Feature","geometry":{"type":"Point","coordinates":[2.401927284511547,48.85197520932561]},"properties":{"nom_gares":"Buzenval","indice_lig":"9"}},{"type":"Feature","geometry":{"type":"Point","coordinates":[2.349559430194618,48.88671096804134]},"properties":{"nom_gares":"Château Rouge","indice_lig":"4"}},{"type":"Feature","geometry":{"type":"Point","coordinates":[2.355791907531139,48.87979369411629]},"properties":{"nom_gares":"Gare du Nord","indice_lig":"4"}},{"type":"Feature","geometry":{"type":"Point","coordinates":[2.33285230996089,48.834292980473194]},"properties":{"nom_gares":"Denfert-Rochereau","indice_lig":"6"}},{"type":"Feature","geometry":{"type":"Point","coordinates":[2.395554512170687,48.847579367477074]},"properties":{"nom_gares":"Nation","indice_lig":"1"}},{"type":"Feature","geometry":{"type":"Point","coordinates":[2.389625539975955,48.852168369650244]},"properties":{"nom_gares":"Rue des Boulets","indice_lig":"9"}},{"type":"Feature","geometry":{"type":"Point","coordinates":[2.368736572626169,48.85343696230164]},"properties":{"nom_gares":"Bastille","indice_lig":"5"}},{"type":"Feature","geometry":{"type":"Point","coordinates":[2.368126330413209,48.83494772325454]},"properties":{"nom_gares":"Chevaleret","indice_lig":"6"}},{"type":"Feature","geometry":{"type":"Point","coordinates":[2.355050264434754,48.84595066575015]},"properties":{"nom_gares":"Jussieu","indice_lig":"7"}},{"type":"Feature","geometry":{"type":"Point","coordinates":[2.359995766394621,48.89048545474661]},"properties":{"nom_gares":"Marx Dormoy","indice_lig":"12"}},{"type":"Feature","geometry":{"type":"Point","coordinates":[2.306010915009083,48.90323367878661]},"properties":{"nom_gares":"Mairie de Clichy","indice_lig":"13"}},{"type":"Feature","geometry":{"type":"Point","coordinates":[2.329705012620185,48.83111266037533]},"properties":{"nom_gares":"Mouton-Duvernet","indice_lig":"4"}},{"type":"Feature","geometry":{"type":"Point","coordinates":[2.332592489355912,48.86993903518653]},"properties":{"nom_gares":"Opéra","indice_lig":"7"}},{"type":"Feature","geometry":{"type":"Point","coordinates":[2.30740224061964,48.84706613315245]},"properties":{"nom_gares":"Ségur","indice_lig":"10"}},{"type":"Feature","geometry":{"type":"Point","coordinates":[2.321257862893747,48.848816373369594]},"properties":{"nom_gares":"Vaneau","indice_lig":"10"}},{"type":"Feature","geometry":{"type":"Point","coordinates":[2.416697272847641,48.8653353181603]},"properties":{"nom_gares":"Gallieni","indice_lig":"3"}},{"type":"Feature","geometry":{"type":"Point","coordinates":[2.410598616469426,48.92078596906289]},"properties":{"nom_gares":"La Courneuve 8 Mai 1945","indice_lig":"7"}},{"type":"Feature","geometry":{"type":"Point","coordinates":[2.397997314830746,48.85190531895693]},"properties":{"nom_gares":"Avron","indice_lig":"2"}},{"type":"Feature","geometry":{"type":"Point","coordinates":[2.347430779960205,48.894343848842425]},"properties":{"nom_gares":"Simplon","indice_lig":"4"}},{"type":"Feature","geometry":{"type":"Point","coordinates":[2.360803503275269,48.866514461743]},"properties":{"nom_gares":"Temple","indice_lig":"3"}},{"type":"Feature","geometry":{"type":"Point","coordinates":[2.314721004746195,48.881094427166275]},"properties":{"nom_gares":"Villiers","indice_lig":"3"}},{"type":"Feature","geometry":{"type":"Point","coordinates":[2.366485372253663,48.75955015404931]},"properties":{"nom_gares":"Chevilly - Larue","indice_lig":"14"}},{"type":"Feature","geometry":{"type":"Point","coordinates":[2.341376051143573,48.86865415183625]},"properties":{"nom_gares":"Bourse","indice_lig":"3"}},{"type":"Feature","geometry":{"type":"Point","coordinates":[2.289334532778807,48.85394260621378]},"properties":{"nom_gares":"Bir-Hakeim","indice_lig":"6"}},{"type":"Feature","geometry":{"type":"Point","coordinates":[2.322265213130597,48.878770367587585]},"properties":{"nom_gares":"Europe","indice_lig":"3"}},{"type":"Feature","geometry":{"type":"Point","coordinates":[2.348208774185469,48.85008987805251]},"properties":{"nom_gares":"Maubert-Mutualité","indice_lig":"10"}},{"type":"Feature","geometry":{"type":"Point","coordinates":[2.338760650528743,48.88967407389343]},"properties":{"nom_gares":"Lamarck-Caulaincourt","indice_lig":"12"}},{"type":"Feature","geometry":{"type":"Point","coordinates":[2.405851943981902,48.826620065463494]},"properties":{"nom_gares":"Liberté","indice_lig":"8"}},{"type":"Feature","geometry":{"type":"Point","coordinates":[2.362856399519012,48.83321671970985]},"properties":{"nom_gares":"Nationale","indice_lig":"6"}},{"type":"Feature","geometry":{"type":"Point","coordinates":[2.393056091960662,48.8768063892129]},"properties":{"nom_gares":"Place des Fêtes","indice_lig":"11"}},{"type":"Feature","geometry":{"type":"Point","coordinates":[2.331186346851652,48.87048333292661]},"properties":{"nom_gares":"Opéra","indice_lig":"8"}},{"type":"Feature","geometry":{"type":"Point","coordinates":[2.327782128498581,48.84845784944872]},"properties":{"nom_gares":"Rennes","indice_lig":"12"}},{"type":"Feature","geometry":{"type":"Point","coordinates":[2.365074861082765,48.86799910892294]},"properties":{"nom_gares":"République","indice_lig":"11"}},{"type":"Feature","geometry":{"type":"Point","coordinates":[2.329008926235403,48.84221841361353]},"properties":{"nom_gares":"Vavin","indice_lig":"4"}},{"type":"Feature","geometry":{"type":"Point","coordinates":[2.368269540049694,48.79648308455054]},"properties":{"nom_gares":"Villejuif Paul Vaillant-Couturier","indice_lig":"7"}},{"type":"Feature","geometry":{"type":"Point","coordinates":[2.373943508245182,48.86147646373029]},"properties":{"nom_gares":"Saint-Ambroise","indice_lig":"9"}},{"type":"Feature","geometry":{"type":"Point","coordinates":[2.315176897304784,48.88956082831538]},"properties":{"nom_gares":"Pont Cardinet","indice_lig":"14"}},{"type":"Feature","geometry":{"type":"Point","coordinates":[2.327842235259622,48.87567210708072]},"properties":{"nom_gares":"Saint-Lazare","indice_lig":"12"}},{"type":"Feature","geometry":{"type":"Point","coordinates":[2.36867458439179,48.852009030520556]},"properties":{"nom_gares":"Bastille","indice_lig":"1"}},{"type":"Feature","geometry":{"type":"Point","coordinates":[2.333379672422159,48.88355629016869]},"properties":{"nom_gares":"Blanche","indice_lig":"2"}},{"type":"Feature","geometry":{"type":"Point","coordinates":[2.480511148060685,48.88275159763064]},"properties":{"nom_gares":"Rosny-Bois-Perrier","indice_lig":"11"}},{"type":"Feature","geometry":{"type":"Point","coordinates":[2.34936523945399,48.79305491267365]},"properties":{"nom_gares":"Villejuif - Gustave Roussy","indice_lig":"14"}},{"type":"Feature","geometry":{"type":"Point","coordinates":[2.331740130985349,48.83345085821352]},"properties":{"nom_gares":"Denfert-Rochereau","indice_lig":"4"}},{"type":"Feature","geometry":{"type":"Point","coordinates":[2.297724346480178,48.884896255150515]},"properties":{"nom_gares":"Pereire-Levallois","indice_lig":"3"}},{"type":"Feature","geometry":{"type":"Point","coordinates":[2.400918536779803,48.84133824913213]},"properties":{"nom_gares":"Bel-Air","indice_lig":"6"}},{"type":"Feature","geometry":{"type":"Point","coordinates":[2.396182886452633,48.83944542837951]},"properties":{"nom_gares":"Daumesnil","indice_lig":"8"}},{"type":"Feature","geometry":{"type":"Point","coordinates":[2.343511657749776,48.831129548026645]},"properties":{"nom_gares":"Glacière","indice_lig":"6"}},{"type":"Feature","geometry":{"type":"Point","coordinates":[2.349627158227453,48.89143955488239]},"properties":{"nom_gares":"Marcadet-Poissonniers","indice_lig":"4"}},{"type":"Feature","geometry":{"type":"Point","coordinates":[2.298930911748061,48.848741665717824]},"properties":{"nom_gares":"La Motte Picquet-Grenelle","indice_lig":"6"}},{"type":"Feature","geometry":{"type":"Point","coordinates":[2.362263387127349,48.81012995727394]},"properties":{"nom_gares":"Le Kremlin-Bicêtre","indice_lig":"7"}},{"type":"Feature","geometry":{"type":"Point","coordinates":[2.339727781593096,48.852300763094235]},"properties":{"nom_gares":"Odéon","indice_lig":"4"}},{"type":"Feature","geometry":{"type":"Point","coordinates":[2.357162571618337,48.85357547250359]},"properties":{"nom_gares":"Pont Marie","indice_lig":"7"}},{"type":"Feature","geometry":{"type":"Point","coordinates":[2.330754192086216,48.83896428071056]},"properties":{"nom_gares":"Raspail","indice_lig":"4"}},{"type":"Feature","geometry":{"type":"Point","coordinates":[2.333776138218468,48.853718934000206]},"properties":{"nom_gares":"Saint-Germain-des-Prés","indice_lig":"4"}},{"type":"Feature","geometry":{"type":"Point","coordinates":[2.379741893177554,48.864285758645295]},"properties":{"nom_gares":"Rue Saint-Maur","indice_lig":"3"}},{"type":"Feature","geometry":{"type":"Point","coordinates":[2.345785860039181,48.86251523497548]},"properties":{"nom_gares":"Les Halles","indice_lig":"4"}},{"type":"Feature","geometry":{"type":"Point","coordinates":[2.325575636212245,48.82341162898739]},"properties":{"nom_gares":"Porte d'Orléans","indice_lig":"4"}},{"type":"Feature","geometry":{"type":"Point","coordinates":[2.365920319400959,48.90656714598029]},"properties":{"nom_gares":"Front Populaire","indice_lig":"12"}},{"type":"Feature","geometry":{"type":"Point","coordinates":[2.357245650758686,48.82642601087568]},"properties":{"nom_gares":"Tolbiac","indice_lig":"7"}},{"type":"Feature","geometry":{"type":"Point","coordinates":[2.327219867919128,48.892206827747096]},"properties":{"nom_gares":"Guy Môquet","indice_lig":"13"}},{"type":"Feature","geometry":{"type":"Point","coordinates":[2.298625127144874,48.84957521390955]},"properties":{"nom_gares":"La Motte Picquet-Grenelle","indice_lig":"8"}},{"type":"Feature","geometry":{"type":"Point","coordinates":[2.32853013989038,48.88399982489613]},"properties":{"nom_gares":"Place de Clichy","indice_lig":"2"}},{"type":"Feature","geometry":{"type":"Point","coordinates":[2.365821546282089,48.88428415025653]},"properties":{"nom_gares":"Stalingrad","indice_lig":"2"}},{"type":"Feature","geometry":{"type":"Point","coordinates":[2.362591469689739,48.7280833904763]},"properties":{"nom_gares":"Aéroport d'Orly","indice_lig":"14"}},{"type":"Feature","geometry":{"type":"Point","coordinates":[2.274154629736559,48.85804605538448]},"properties":{"nom_gares":"La Muette","indice_lig":"9"}},{"type":"Feature","geometry":{"type":"Point","coordinates":[2.295904904713175,48.87514981972761]},"properties":{"nom_gares":"Charles De Gaulle-Étoile","indice_lig":"1"}},{"type":"Feature","geometry":{"type":"Point","coordinates":[2.327695409630174,48.87371340670775]},"properties":{"nom_gares":"Havre-Caumartin","indice_lig":"9"}},{"type":"Feature","geometry":{"type":"Point","coordinates":[2.293951963648718,48.84479476371181]},"properties":{"nom_gares":"Commerce","indice_lig":"8"}},{"type":"Feature","geometry":{"type":"Point","coordinates":[2.264082030746222,48.84789565020843]},"properties":{"nom_gares":"Michel Ange-Auteuil","indice_lig":"9"}},{"type":"Feature","geometry":{"type":"Point","coordinates":[2.352542266262702,48.83593030287887]},"properties":{"nom_gares":"Les Gobelins","indice_lig":"7"}},{"type":"Feature","geometry":{"type":"Point","coordinates":[2.326272274027749,48.869633173024916]},"properties":{"nom_gares":"Madeleine","indice_lig":"8"}},{"type":"Feature","geometry":{"type":"Point","coordinates":[2.384289600960821,48.81052080428471]},"properties":{"nom_gares":"Mairie d'Ivry","indice_lig":"7"}},{"type":"Feature","geometry":{"type":"Point","coordinates":[2.398867596625601,48.87547445667917]},"properties":{"nom_gares":"Télégraphe","indice_lig":"11"}},{"type":"Feature","geometry":{"type":"Point","coordinates":[2.293240649947314,48.87126214446096]},"properties":{"nom_gares":"Kléber","indice_lig":"6"}},{"type":"Feature","geometry":{"type":"Point","coordinates":[2.383599109573657,48.866446806067]},"properties":{"nom_gares":"Ménilmontant","indice_lig":"2"}},{"type":"Feature","geometry":{"type":"Point","coordinates":[2.377090439088876,48.890906449558166]},"properties":{"nom_gares":"Crimée","indice_lig":"7"}},{"type":"Feature","geometry":{"type":"Point","coordinates":[2.370259056755391,48.88162402899078]},"properties":{"nom_gares":"Jaurès","indice_lig":"2"}},{"type":"Feature","geometry":{"type":"Point","coordinates":[2.464280070543357,48.76881073420608]},"properties":{"nom_gares":"Créteil - Pointe du Lac","indice_lig":"8"}},{"type":"Feature","geometry":{"type":"Point","coordinates":[2.314721004746195,48.881094427166275]},"properties":{"nom_gares":"Villiers","indice_lig":"2"}},{"type":"Feature","geometry":{"type":"Point","coordinates":[2.427185577733917,48.881316062234305]},"properties":{"nom_gares":"Serge Gainsbourg","indice_lig":"11"}},{"type":"Feature","geometry":{"type":"Point","coordinates":[2.401561712742542,48.86844016327547]},"properties":{"nom_gares":"Pelleport","indice_lig":"3bis"}},{"type":"Feature","geometry":{"type":"Point","coordinates":[2.319740313298555,48.818676409912605]},"properties":{"nom_gares":"Mairie de Montrouge","indice_lig":"4"}},{"type":"Feature","geometry":{"type":"Point","coordinates":[2.278400386366102,48.846157204832465]},"properties":{"nom_gares":"Javel - André Citroën","indice_lig":"10"}},{"type":"Feature","geometry":{"type":"Point","coordinates":[2.359366296360598,48.93677678991262]},"properties":{"nom_gares":"Basilique de Saint-Denis","indice_lig":"13"}},{"type":"Feature","geometry":{"type":"Point","coordinates":[2.368184114950699,48.85710325815475]},"properties":{"nom_gares":"Chemin Vert","indice_lig":"8"}},{"type":"Feature","geometry":{"type":"Point","coordinates":[2.259608472752572,48.84241277035873]},"properties":{"nom_gares":"Exelmans","indice_lig":"9"}},{"type":"Feature","geometry":{"type":"Point","coordinates":[2.285999222059008,48.8465346367312]},"properties":{"nom_gares":"Charles Michels","indice_lig":"10"}},{"type":"Feature","geometry":{"type":"Point","coordinates":[2.297077796972984,48.81530753120022]},"properties":{"nom_gares":"Malakoff - Rue Étienne Dolet","indice_lig":"13"}},{"type":"Feature","geometry":{"type":"Point","coordinates":[2.27276375331616,48.84713100819624]},"properties":{"nom_gares":"Mirabeau","indice_lig":"10"}},{"type":"Feature","geometry":{"type":"Point","coordinates":[2.327022200889503,48.87963476065682]},"properties":{"nom_gares":"Liège","indice_lig":"13"}},{"type":"Feature","geometry":{"type":"Point","coordinates":[2.367210867785615,48.861168864595705]},"properties":{"nom_gares":"Saint-Sébastien-Froissart","indice_lig":"8"}},{"type":"Feature","geometry":{"type":"Point","coordinates":[2.286243169328236,48.863065020217945]},"properties":{"nom_gares":"Trocadéro","indice_lig":"9"}},{"type":"Feature","geometry":{"type":"Point","coordinates":[2.358566256349467,48.835152535740804]},"properties":{"nom_gares":"Campo Formio","indice_lig":"5"}},{"type":"Feature","geometry":{"type":"Point","coordinates":[2.338857159453805,48.87219090864884]},"properties":{"nom_gares":"Richelieu-Drouot","indice_lig":"9"}},{"type":"Feature","geometry":{"type":"Point","coordinates":[2.40672924554309,48.87711051176337]},"properties":{"nom_gares":"Porte des Lilas","indice_lig":"3bis"}},{"type":"Feature","geometry":{"type":"Point","coordinates":[2.33183083796241,48.906094050248626]},"properties":{"nom_gares":"Garibaldi","indice_lig":"13"}},{"type":"Feature","geometry":{"type":"Point","coordinates":[2.380020644247983,48.85787849486676]},"properties":{"nom_gares":"Voltaire","indice_lig":"9"}},{"type":"Feature","geometry":{"type":"Point","coordinates":[2.296231386803389,48.837099428223645]},"properties":{"nom_gares":"Convention","indice_lig":"12"}},{"type":"Feature","geometry":{"type":"Point","coordinates":[2.373922590316754,48.843486761806766]},"properties":{"nom_gares":"Gare de Lyon","indice_lig":"14"}},{"type":"Feature","geometry":{"type":"Point","coordinates":[2.343285978923924,48.85316798489062]},"properties":{"nom_gares":"Saint-Michel","indice_lig":"4"}},{"type":"Feature","geometry":{"type":"Point","coordinates":[2.324224580938853,48.87571908982334]},"properties":{"nom_gares":"Saint-Lazare","indice_lig":"14"}},{"type":"Feature","geometry":{"type":"Point","coordinates":[2.350414872010464,48.82979051369297]},"properties":{"nom_gares":"Corvisart","indice_lig":"6"}},{"type":"Feature","geometry":{"type":"Point","coordinates":[2.312812774836902,48.84267681998372]},"properties":{"nom_gares":"Pasteur","indice_lig":"6"}},{"type":"Feature","geometry":{"type":"Point","coordinates":[2.396912847086626,48.86497810787772]},"properties":{"nom_gares":"Gambetta","indice_lig":"3"}},{"type":"Feature","geometry":{"type":"Point","coordinates":[2.308607493526256,48.869438881659114]},"properties":{"nom_gares":"Franklin D. Roosevelt","indice_lig":"1"}},{"type":"Feature","geometry":{"type":"Point","coordinates":[2.309505157337887,48.86869984735294]},"properties":{"nom_gares":"Franklin D. Roosevelt","indice_lig":"9"}},{"type":"Feature","geometry":{"type":"Point","coordinates":[2.406480156998486,48.87717481930548]},"properties":{"nom_gares":"Porte des Lilas","indice_lig":"11"}},{"type":"Feature","geometry":{"type":"Point","coordinates":[2.422983216145875,48.855726428633155]},"properties":{"nom_gares":"Robespierre","indice_lig":"9"}},{"type":"Feature","geometry":{"type":"Point","coordinates":[2.364378741179748,48.881192119070995]},"properties":{"nom_gares":"Louis Blanc","indice_lig":"7b"}},{"type":"Feature","geometry":{"type":"Point","coordinates":[2.326384610792847,48.84066322929957]},"properties":{"nom_gares":"Edgar Quinet","indice_lig":"6"}},{"type":"Feature","geometry":{"type":"Point","coordinates":[2.238887327153073,48.842005347289565]},"properties":{"nom_gares":"Boulogne - Jean Jaurès","indice_lig":"10"}},{"type":"Feature","geometry":{"type":"Point","coordinates":[2.285009501382414,48.892082785966664]},"properties":{"nom_gares":"Anatole France","indice_lig":"3"}},{"type":"Feature","geometry":{"type":"Point","coordinates":[2.347321317067427,48.85493637835866]},"properties":{"nom_gares":"Cité","indice_lig":"4"}},{"type":"Feature","geometry":{"type":"Point","coordinates":[2.406089161868773,48.85272512017012]},"properties":{"nom_gares":"Maraîchers","indice_lig":"9"}},{"type":"Feature","geometry":{"type":"Point","coordinates":[2.325163546827897,48.87023324339993]},"properties":{"nom_gares":"Madeleine","indice_lig":"12"}},{"type":"Feature","geometry":{"type":"Point","coordinates":[2.336496460942477,48.86234803084025]},"properties":{"nom_gares":"Palais Royal - Musée du Louvre","indice_lig":"1"}},{"type":"Feature","geometry":{"type":"Point","coordinates":[2.368011378256503,48.8650190090373]},"properties":{"nom_gares":"Oberkampf","indice_lig":"9"}},{"type":"Feature","geometry":{"type":"Point","coordinates":[2.330754192086216,48.83896428071056]},"properties":{"nom_gares":"Raspail","indice_lig":"6"}},{"type":"Feature","geometry":{"type":"Point","coordinates":[2.387025242098631,48.847128722240626]},"properties":{"nom_gares":"Reuilly-Diderot","indice_lig":"8"}},{"type":"Feature","geometry":{"type":"Point","coordinates":[2.357880771925327,48.8759910648072]},"properties":{"nom_gares":"Gare de l'Est","indice_lig":"4"}},{"type":"Feature","geometry":{"type":"Point","coordinates":[2.321278562744627,48.842102207208605]},"properties":{"nom_gares":"Montparnasse-Bienvenüe","indice_lig":"6"}},{"type":"Feature","geometry":{"type":"Point","coordinates":[2.375101033755616,48.85152370843435]},"properties":{"nom_gares":"Ledru Rollin","indice_lig":"8"}},{"type":"Feature","geometry":{"type":"Point","coordinates":[2.3368784003342,48.86282967190577]},"properties":{"nom_gares":"Palais Royal - Musée du Louvre","indice_lig":"7"}},{"type":"Feature","geometry":{"type":"Point","coordinates":[2.317005235737245,48.84698910613954]},"properties":{"nom_gares":"Duroc","indice_lig":"10"}},{"type":"Feature","geometry":{"type":"Point","coordinates":[2.394675654792046,48.85622809125615]},"properties":{"nom_gares":"Alexandre Dumas","indice_lig":"2"}},{"type":"Feature","geometry":{"type":"Point","coordinates":[2.338463081008744,48.87169298457071]},"properties":{"nom_gares":"Richelieu-Drouot","indice_lig":"8"}},{"type":"Feature","geometry":{"type":"Point","coordinates":[2.290058833580487,48.86698310944948]},"properties":{"nom_gares":"Boissière","indice_lig":"6"}},{"type":"Feature","geometry":{"type":"Point","coordinates":[2.440439978057246,48.84445639456913]},"properties":{"nom_gares":"Château de Vincennes","indice_lig":"1"}},{"type":"Feature","geometry":{"type":"Point","coordinates":[2.340613006406504,48.85193594203498]},"properties":{"nom_gares":"Odéon","indice_lig":"10"}},{"type":"Feature","geometry":{"type":"Point","coordinates":[2.278441648833149,48.86394013069539]},"properties":{"nom_gares":"Rue de la Pompe","indice_lig":"9"}},{"type":"Feature","geometry":{"type":"Point","coordinates":[2.404514942379104,48.87210144213156]},"properties":{"nom_gares":"Saint-Fargeau","indice_lig":"3bis"}},{"type":"Feature","geometry":{"type":"Point","coordinates":[2.314408121472487,48.85144170744032]},"properties":{"nom_gares":"Saint-François-Xavier","indice_lig":"13"}},{"type":"Feature","geometry":{"type":"Point","coordinates":[2.359507868815593,48.89724528809305]},"properties":{"nom_gares":"Porte de la Chapelle","indice_lig":"12"}},{"type":"Feature","geometry":{"type":"Point","coordinates":[2.320998191954085,48.860786963526714]},"properties":{"nom_gares":"Assemblée Nationale","indice_lig":"12"}},{"type":"Feature","geometry":{"type":"Point","coordinates":[2.351008461406026,48.85745183174312]},"properties":{"nom_gares":"Hôtel de Ville","indice_lig":"11"}},{"type":"Feature","geometry":{"type":"Point","coordinates":[2.298464191958535,48.822583707737074]},"properties":{"nom_gares":"Malakoff - Plateau de Vanves","indice_lig":"13"}},{"type":"Feature","geometry":{"type":"Point","coordinates":[2.348775557476847,48.877100185798646]},"properties":{"nom_gares":"Poissonnière","indice_lig":"7"}},{"type":"Feature","geometry":{"type":"Point","coordinates":[2.412763044547627,48.893149985759834]},"properties":{"nom_gares":"Église de Pantin","indice_lig":"5"}},{"type":"Feature","geometry":{"type":"Point","coordinates":[2.356153947450339,48.87262083992817]},"properties":{"nom_gares":"Château d'Eau","indice_lig":"4"}},{"type":"Feature","geometry":{"type":"Point","coordinates":[2.348147481005499,48.856942736159496]},"properties":{"nom_gares":"Châtelet","indice_lig":"7"}},{"type":"Feature","geometry":{"type":"Point","coordinates":[2.349750100298353,48.80981003194872]},"properties":{"nom_gares":"Hôpital Bicêtre","indice_lig":"14"}},{"type":"Feature","geometry":{"type":"Point","coordinates":[2.366661093353452,48.8632579449589]},"properties":{"nom_gares":"Filles du Calvaire","indice_lig":"8"}},{"type":"Feature","geometry":{"type":"Point","coordinates":[2.349815453218361,48.89146500033268]},"properties":{"nom_gares":"Marcadet-Poissonniers","indice_lig":"12"}},{"type":"Feature","geometry":{"type":"Point","coordinates":[2.310565960946845,48.85772541289347]},"properties":{"nom_gares":"La Tour Maubourg","indice_lig":"8"}},{"type":"Feature","geometry":{"type":"Point","coordinates":[2.288022141100325,48.83244909914335]},"properties":{"nom_gares":"Porte de Versailles","indice_lig":"12"}},{"type":"Feature","geometry":{"type":"Point","coordinates":[2.3371351933439,48.83290081566025]},"properties":{"nom_gares":"Saint-Jacques","indice_lig":"6"}},{"type":"Feature","geometry":{"type":"Point","coordinates":[2.425326890166255,48.89545467305272]},"properties":{"nom_gares":"Bobigny-Pantin - Raymond Queneau","indice_lig":"5"}},{"type":"Feature","geometry":{"type":"Point","coordinates":[2.349674832582202,48.8834180885266]},"properties":{"nom_gares":"Barbès-Rochechouart","indice_lig":"4"}},{"type":"Feature","geometry":{"type":"Point","coordinates":[2.360399500808732,48.8843996770653]},"properties":{"nom_gares":"La Chapelle","indice_lig":"2"}},{"type":"Feature","geometry":{"type":"Point","coordinates":[2.287945766487378,48.84109405724891]},"properties":{"nom_gares":"Boucicaut","indice_lig":"8"}},{"type":"Feature","geometry":{"type":"Point","coordinates":[2.300560451236721,48.872023810399725]},"properties":{"nom_gares":"George V","indice_lig":"1"}},{"type":"Feature","geometry":{"type":"Point","coordinates":[2.361400210432778,48.87039638922484]},"properties":{"nom_gares":"Jacques Bonsergent","indice_lig":"5"}},{"type":"Feature","geometry":{"type":"Point","coordinates":[2.387835956453658,48.86218374787729]},"properties":{"nom_gares":"Père Lachaise","indice_lig":"2"}},{"type":"Feature","geometry":{"type":"Point","coordinates":[2.314122323459022,48.83182565048563]},"properties":{"nom_gares":"Plaisance","indice_lig":"13"}},{"type":"Feature","geometry":{"type":"Point","coordinates":[2.35970521674602,48.81922334960906]},"properties":{"nom_gares":"Porte d'Italie","indice_lig":"7"}},{"type":"Feature","geometry":{"type":"Point","coordinates":[2.334437714865551,48.86573786666654]},"properties":{"nom_gares":"Pyramides","indice_lig":"7"}},{"type":"Feature","geometry":{"type":"Point","coordinates":[2.362757380002763,48.867600880102444]},"properties":{"nom_gares":"République","indice_lig":"8"}},{"type":"Feature","geometry":{"type":"Point","coordinates":[2.344847748752399,48.897402222898094]},"properties":{"nom_gares":"Porte de Clignancourt","indice_lig":"4"}},{"type":"Feature","geometry":{"type":"Point","coordinates":[2.373456887852549,48.88796756174982]},"properties":{"nom_gares":"Riquet","indice_lig":"7"}},{"type":"Feature","geometry":{"type":"Point","coordinates":[2.346478183587595,48.859589655582816]},"properties":{"nom_gares":"Châtelet","indice_lig":"14"}},{"type":"Feature","geometry":{"type":"Point","coordinates":[2.346768285736699,48.8597186619952]},"properties":{"nom_gares":"Châtelet","indice_lig":"4"}},{"type":"Feature","geometry":{"type":"Point","coordinates":[2.33394668252863,48.873252746484354]},"properties":{"nom_gares":"Chaussée d'Antin - La Fayette","indice_lig":"7"}},{"type":"Feature","geometry":{"type":"Point","coordinates":[2.32547637444705,48.87542071665263]},"properties":{"nom_gares":"Saint-Lazare","indice_lig":"13"}},{"type":"Feature","geometry":{"type":"Point","coordinates":[2.465471746757163,48.877993387689884]},"properties":{"nom_gares":"La Dhuys","indice_lig":"11"}},{"type":"Feature","geometry":{"type":"Point","coordinates":[2.324380555428912,48.87515128791023]},"properties":{"nom_gares":"Saint-Lazare","indice_lig":"3"}},{"type":"Feature","geometry":{"type":"Point","coordinates":[2.34849113107899,48.870590478011124]},"properties":{"nom_gares":"Bonne Nouvelle","indice_lig":"9"}},{"type":"Feature","geometry":{"type":"Point","coordinates":[2.376593684096822,48.87184879466127]},"properties":{"nom_gares":"Belleville","indice_lig":"11"}},{"type":"Feature","geometry":{"type":"Point","coordinates":[2.293612437187803,48.85043454901342]},"properties":{"nom_gares":"Dupleix","indice_lig":"6"}},{"type":"Feature","geometry":{"type":"Point","coordinates":[2.272238940611057,48.88101649749112]},"properties":{"nom_gares":"Les Sablons","indice_lig":"1"}},{"type":"Feature","geometry":{"type":"Point","coordinates":[2.305534669653895,48.82779554349536]},"properties":{"nom_gares":"Porte de Vanves","indice_lig":"13"}},{"type":"Feature","geometry":{"type":"Point","coordinates":[2.363740437195039,48.86782709972698]},"properties":{"nom_gares":"République","indice_lig":"5"}},{"type":"Feature","geometry":{"type":"Point","coordinates":[2.402352143900472,48.891228593203465]},"properties":{"nom_gares":"Hoche","indice_lig":"5"}},{"type":"Feature","geometry":{"type":"Point","coordinates":[2.285335094686169,48.86979855646069]},"properties":{"nom_gares":"Victor Hugo","indice_lig":"2"}},{"type":"Feature","geometry":{"type":"Point","coordinates":[2.291912413317875,48.84274677979288]},"properties":{"nom_gares":"Félix Faure","indice_lig":"8"}},{"type":"Feature","geometry":{"type":"Point","coordinates":[2.418759786698672,48.846423077287035]},"properties":{"nom_gares":"Saint-Mandé","indice_lig":"1"}},{"type":"Feature","geometry":{"type":"Point","coordinates":[2.266441541719401,48.84520470358118]},"properties":{"nom_gares":"Chardon Lagache","indice_lig":"10"}},{"type":"Feature","geometry":{"type":"Point","coordinates":[2.334456291376851,48.87280447590615]},"properties":{"nom_gares":"Chaussée d'Antin - La Fayette","indice_lig":"9"}},{"type":"Feature","geometry":{"type":"Point","coordinates":[2.321743589558779,48.904496420574624]},"properties":{"nom_gares":"Saint-Ouen","indice_lig":"14"}},{"type":"Feature","geometry":{"type":"Point","coordinates":[2.380542586000037,48.8690911620257]},"properties":{"nom_gares":"Couronnes","indice_lig":"2"}},{"type":"Feature","geometry":{"type":"Point","coordinates":[2.370811395312745,48.87761018741785]},"properties":{"nom_gares":"Colonel Fabien","indice_lig":"2"}},{"type":"Feature","geometry":{"type":"Point","coordinates":[2.24357862873933,48.83362878105417]},"properties":{"nom_gares":"Marcel Sembat","indice_lig":"9"}},{"type":"Feature","geometry":{"type":"Point","coordinates":[2.325752635286725,48.87066702089795]},"properties":{"nom_gares":"Madeleine","indice_lig":"14"}},{"type":"Feature","geometry":{"type":"Point","coordinates":[2.327243410587406,48.8838045280338]},"properties":{"nom_gares":"Place de Clichy","indice_lig":"13"}},{"type":"Feature","geometry":{"type":"Point","coordinates":[2.326822568897497,48.85176205249548]},"properties":{"nom_gares":"Sèvres-Babylone","indice_lig":"12"}},{"type":"Feature","geometry":{"type":"Point","coordinates":[2.408089407236094,48.847335584614896]},"properties":{"nom_gares":"Porte de Vincennes","indice_lig":"1"}},{"type":"Feature","geometry":{"type":"Point","coordinates":[2.390860952323608,48.85806226176241]},"properties":{"nom_gares":"Philippe Auguste","indice_lig":"2"}},{"type":"Feature","geometry":{"type":"Point","coordinates":[2.344572482089328,48.87600859381197]},"properties":{"nom_gares":"Cadet","indice_lig":"7"}},{"type":"Feature","geometry":{"type":"Point","coordinates":[2.44082220524926,48.8831359021221]},"properties":{"nom_gares":"Romainville - Carnot","indice_lig":"11"}},{"type":"Feature","geometry":{"type":"Point","coordinates":[2.354364943199495,48.77531361288962]},"properties":{"nom_gares":"L'Haÿ - les - Roses","indice_lig":"14"}},{"type":"Feature","geometry":{"type":"Point","coordinates":[2.368032648414278,48.82727083601133]},"properties":{"nom_gares":"Olympiades","indice_lig":"14"}},{"type":"Feature","geometry":{"type":"Point","coordinates":[2.344273345421351,48.851050282314304]},"properties":{"nom_gares":"Cluny-La Sorbonne","indice_lig":"10"}},{"type":"Feature","geometry":{"type":"Point","coordinates":[2.356729869173701,48.86532271167806]},"properties":{"nom_gares":"Arts et Métiers","indice_lig":"11"}},{"type":"Feature","geometry":{"type":"Point","coordinates":[2.302968297817314,48.84750708199681]},"properties":{"nom_gares":"Cambronne","indice_lig":"6"}},{"type":"Feature","geometry":{"type":"Point","coordinates":[2.322082848676169,48.86681836985009]},"properties":{"nom_gares":"Concorde","indice_lig":"8"}},{"type":"Feature","geometry":{"type":"Point","coordinates":[2.384092210055667,48.85017786279968]},"properties":{"nom_gares":"Faidherbe Chaligny","indice_lig":"8"}},{"type":"Feature","geometry":{"type":"Point","coordinates":[2.325779674806892,48.88718394686579]},"properties":{"nom_gares":"La Fourche","indice_lig":"13"}},{"type":"Feature","geometry":{"type":"Point","coordinates":[2.392983964817394,48.87694984811022]},"properties":{"nom_gares":"Place des Fêtes","indice_lig":"7b"}},{"type":"Feature","geometry":{"type":"Point","coordinates":[2.411894837056435,48.853772788014886]},"properties":{"nom_gares":"Porte de Montreuil","indice_lig":"9"}},{"type":"Feature","geometry":{"type":"Point","coordinates":[2.369290587346029,48.82135578381409]},"properties":{"nom_gares":"Porte d'Ivry","indice_lig":"7"}},{"type":"Feature","geometry":{"type":"Point","coordinates":[2.372825724542572,48.83704512015793]},"properties":{"nom_gares":"Quai de la Gare","indice_lig":"6"}},{"type":"Feature","geometry":{"type":"Point","coordinates":[2.408031037075815,48.86460037337562]},"properties":{"nom_gares":"Porte de Bagnolet","indice_lig":"3"}},{"type":"Feature","geometry":{"type":"Point","coordinates":[2.298310373761529,48.87797270141956]},"properties":{"nom_gares":"Ternes","indice_lig":"2"}},{"type":"Feature","geometry":{"type":"Point","coordinates":[2.36591010685298,48.8464846505702]},"properties":{"nom_gares":"Quai de la Rapée","indice_lig":"5"}},{"type":"Feature","geometry":{"type":"Point","coordinates":[2.353818793592879,48.86940219665552]},"properties":{"nom_gares":"Strasbourg-Saint-Denis","indice_lig":"8"}},{"type":"Feature","geometry":{"type":"Point","coordinates":[2.34849113107899,48.870590478011124]},"properties":{"nom_gares":"Bonne Nouvelle","indice_lig":"8"}},{"type":"Feature","geometry":{"type":"Point","coordinates":[2.377741481106109,48.90808243782026]},"properties":{"nom_gares":"Aimé Césaire","indice_lig":"12"}},{"type":"Feature","geometry":{"type":"Point","coordinates":[2.359055154384318,48.82142042957708]},"properties":{"nom_gares":"Maison Blanche","indice_lig":"14"}},{"type":"Feature","geometry":{"type":"Point","coordinates":[2.295801222351869,48.87481054112289]},"properties":{"nom_gares":"Charles De Gaulle-Étoile","indice_lig":"2"}},{"type":"Feature","geometry":{"type":"Point","coordinates":[2.300991003495584,48.86476684497177]},"properties":{"nom_gares":"Alma-Marceau","indice_lig":"9"}},{"type":"Feature","geometry":{"type":"Point","coordinates":[2.386632402066985,48.83333855925167]},"properties":{"nom_gares":"Cour Saint-Émilion","indice_lig":"14"}},{"type":"Feature","geometry":{"type":"Point","coordinates":[2.301678555482428,48.810746486780936]},"properties":{"nom_gares":"Châtillon-Montrouge","indice_lig":"13"}},{"type":"Feature","geometry":{"type":"Point","coordinates":[2.398746593442592,48.86516343488149]},"properties":{"nom_gares":"Gambetta","indice_lig":"3bis"}},{"type":"Feature","geometry":{"type":"Point","coordinates":[2.385243715115072,48.847179910069585]},"properties":{"nom_gares":"Reuilly-Diderot","indice_lig":"1"}},{"type":"Feature","geometry":{"type":"Point","coordinates":[2.39546199483274,48.84737487872935]},"properties":{"nom_gares":"Nation","indice_lig":"6"}},{"type":"Feature","geometry":{"type":"Point","coordinates":[2.395879435185689,48.84894464506383]},"properties":{"nom_gares":"Nation","indice_lig":"9"}},{"type":"Feature","geometry":{"type":"Point","coordinates":[2.416479643681515,48.87976125309794]},"properties":{"nom_gares":"Mairie des Lilas","indice_lig":"11"}},{"type":"Feature","geometry":{"type":"Point","coordinates":[2.33794977569207,48.884594208027806]},"properties":{"nom_gares":"Abbesses","indice_lig":"12"}},{"type":"Feature","geometry":{"type":"Point","coordinates":[2.313545549946741,48.8679053448971]},"properties":{"nom_gares":"Champs-Élysées – Clemenceau","indice_lig":"1"}},{"type":"Feature","geometry":{"type":"Point","coordinates":[2.335502051727558,48.8530167679172]},"properties":{"nom_gares":"Mabillon","indice_lig":"10"}},{"type":"Feature","geometry":{"type":"Point","coordinates":[2.28316224223023,48.87755125180425]},"properties":{"nom_gares":"Porte Maillot","indice_lig":"1"}},{"type":"Feature","geometry":{"type":"Point","coordinates":[2.346544621535985,48.91746894101899]},"properties":{"nom_gares":"Saint-Denis – Pleyel","indice_lig":"14"}},{"type":"Feature","geometry":{"type":"Point","coordinates":[2.344764611738356,48.892418922945716]},"properties":{"nom_gares":"Jules Joffrin","indice_lig":"12"}},{"type":"Feature","geometry":{"type":"Point","coordinates":[2.333108893760544,48.87633026495961]},"properties":{"nom_gares":"Trinité d'Estienne d'Orves","indice_lig":"12"}},{"type":"Feature","geometry":{"type":"Point","coordinates":[2.365184811993381,48.842436797924776]},"properties":{"nom_gares":"Gare d'Austerlitz","indice_lig":"10"}},{"type":"Feature","geometry":{"type":"Point","coordinates":[2.382160158371538,48.89465585833331]},"properties":{"nom_gares":"Corentin Cariou","indice_lig":"7"}},{"type":"Feature","geometry":{"type":"Point","coordinates":[2.31445603617697,48.87376998959543]},"properties":{"nom_gares":"Miromesnil","indice_lig":"13"}},{"type":"Feature","geometry":{"type":"Point","coordinates":[2.353495741491146,48.86120499033039]},"properties":{"nom_gares":"Rambuteau","indice_lig":"11"}},{"type":"Feature","geometry":{"type":"Point","coordinates":[2.337857510381017,48.87817339105656]},"properties":{"nom_gares":"Saint-Georges","indice_lig":"12"}},{"type":"Feature","geometry":{"type":"Point","coordinates":[2.358551348202204,48.822182658556564]},"properties":{"nom_gares":"Maison Blanche","indice_lig":"7"}},{"type":"Feature","geometry":{"type":"Point","coordinates":[2.449412805145808,48.79668213499687]},"properties":{"nom_gares":"Créteil–L’Échat","indice_lig":"8"}},{"type":"Feature","geometry":{"type":"Point","coordinates":[2.34456106066273,48.87125654594185]},"properties":{"nom_gares":"Grands Boulevards","indice_lig":"8"}},{"type":"Feature","geometry":{"type":"Point","coordinates":[2.278330259866024,48.83629530154249]},"properties":{"nom_gares":"Balard","indice_lig":"8"}},{"type":"Feature","geometry":{"type":"Point","coordinates":[2.35558027407791,48.830972672988366]},"properties":{"nom_gares":"Place d'Italie","indice_lig":"5"}},{"type":"Feature","geometry":{"type":"Point","coordinates":[2.326102312824191,48.851031751239304]},"properties":{"nom_gares":"Sèvres-Babylone","indice_lig":"10"}},{"type":"Feature","geometry":{"type":"Point","coordinates":[2.362928700156112,48.86778030055016]},"properties":{"nom_gares":"République","indice_lig":"9"}},{"type":"Feature","geometry":{"type":"Point","coordinates":[2.370209339755372,48.856140711155]},"properties":{"nom_gares":"Bréguet-Sabin","indice_lig":"5"}},{"type":"Feature","geometry":{"type":"Point","coordinates":[2.395703289436394,48.83954964556868]},"properties":{"nom_gares":"Daumesnil","indice_lig":"6"}},{"type":"Feature","geometry":{"type":"Point","coordinates":[2.422376142845623,48.81480300700047]},"properties":{"nom_gares":"École Vétérinaire de Maisons-Alfort","indice_lig":"8"}},{"type":"Feature","geometry":{"type":"Point","coordinates":[2.354917983707404,48.846151122181325]},"properties":{"nom_gares":"Jussieu","indice_lig":"10"}},{"type":"Feature","geometry":{"type":"Point","coordinates":[2.314743542030632,48.873733165607064]},"properties":{"nom_gares":"Miromesnil","indice_lig":"9"}},{"type":"Feature","geometry":{"type":"Point","coordinates":[2.288083633048504,48.88870601977514]},"properties":{"nom_gares":"Louise Michel","indice_lig":"3"}},{"type":"Feature","geometry":{"type":"Point","coordinates":[2.374581969996413,48.86525378605433]},"properties":{"nom_gares":"Parmentier","indice_lig":"3"}},{"type":"Feature","geometry":{"type":"Point","coordinates":[2.352224728183084,48.84286683068267]},"properties":{"nom_gares":"Place Monge","indice_lig":"7"}},{"type":"Feature","geometry":{"type":"Point","coordinates":[2.364531953109201,48.81987622105712]},"properties":{"nom_gares":"Porte de Choisy","indice_lig":"7"}},{"type":"Feature","geometry":{"type":"Point","coordinates":[2.309531491460945,48.84562696674718]},"properties":{"nom_gares":"Sèvres-Lecourbe","indice_lig":"6"}},{"type":"Feature","geometry":{"type":"Point","coordinates":[2.328942812768303,48.897374796428764]},"properties":{"nom_gares":"Porte de Saint-Ouen","indice_lig":"13"}},{"type":"Feature","geometry":{"type":"Point","coordinates":[2.364636482504226,48.94586727214251]},"properties":{"nom_gares":"Saint-Denis - Université","indice_lig":"13"}},{"type":"Feature","geometry":{"type":"Point","coordinates":[2.307948677974289,48.84150552236008]},"properties":{"nom_gares":"Volontaires","indice_lig":"12"}},{"type":"Feature","geometry":{"type":"Point","coordinates":[2.434509895923941,48.809144361835415]},"properties":{"nom_gares":"Maisons-Alfort-Stade","indice_lig":"8"}},{"type":"Feature","geometry":{"type":"Point","coordinates":[2.379911271454398,48.84038874809587]},"properties":{"nom_gares":"Bercy","indice_lig":"6"}},{"type":"Feature","geometry":{"type":"Point","coordinates":[2.334663150119759,48.91320209515785]},"properties":{"nom_gares":"Mairie de Saint-Ouen","indice_lig":"14"}},{"type":"Feature","geometry":{"type":"Point","coordinates":[2.306403485736517,48.85489056687858]},"properties":{"nom_gares":"École Militaire","indice_lig":"8"}},{"type":"Feature","geometry":{"type":"Point","coordinates":[2.454714211064978,48.87833670193852]},"properties":{"nom_gares":"Montreuil - Hôpital","indice_lig":"11"}},{"type":"Feature","geometry":{"type":"Point","coordinates":[2.295560256213147,48.87474865067991]},"properties":{"nom_gares":"Charles De Gaulle-Étoile","indice_lig":"6"}},{"type":"Feature","geometry":{"type":"Point","coordinates":[2.295019130476362,48.84699703133652]},"properties":{"nom_gares":"Avenue Émile Zola","indice_lig":"10"}},{"type":"Feature","geometry":{"type":"Point","coordinates":[2.268176749423331,48.85250409151217]},"properties":{"nom_gares":"Jasmin","indice_lig":"9"}},{"type":"Feature","geometry":{"type":"Point","coordinates":[2.261745124963672,48.84505817231375]},"properties":{"nom_gares":"Michel Ange-Molitor","indice_lig":"9"}},{"type":"Feature","geometry":{"type":"Point","coordinates":[2.315056637317088,48.85687137924919]},"properties":{"nom_gares":"Varenne","indice_lig":"13"}},{"type":"Feature","geometry":{"type":"Point","coordinates":[2.293529966337255,48.886006151507]},"properties":{"nom_gares":"Porte de Champerret","indice_lig":"3"}},{"type":"Feature","geometry":{"type":"Point","coordinates":[2.36958085557783,48.88479825198408]},"properties":{"nom_gares":"Stalingrad","indice_lig":"7"}},{"type":"Feature","geometry":{"type":"Point","coordinates":[2.372839696785623,48.746978700693774]},"properties":{"nom_gares":"Thiais - Orly","indice_lig":"14"}},{"type":"Feature","geometry":{"type":"Point","coordinates":[2.351623255016012,48.84665685124266]},"properties":{"nom_gares":"Cardinal Lemoine","indice_lig":"10"}},{"type":"Feature","geometry":{"type":"Point","coordinates":[2.322943412243542,48.86628580458389]},"properties":{"nom_gares":"Concorde","indice_lig":"1"}},{"type":"Feature","geometry":{"type":"Point","coordinates":[2.389415032035528,48.87511181695599]},"properties":{"nom_gares":"Jourdain","indice_lig":"11"}},{"type":"Feature","geometry":{"type":"Point","coordinates":[2.318616414425384,48.83422588267789]},"properties":{"nom_gares":"Pernety","indice_lig":"13"}},{"type":"Feature","geometry":{"type":"Point","coordinates":[2.377267201513739,48.815930763056315]},"properties":{"nom_gares":"Pierre et Marie Curie","indice_lig":"7"}},{"type":"Feature","geometry":{"type":"Point","coordinates":[2.310018932408274,48.87204586272729]},"properties":{"nom_gares":"Saint-Philippe du Roule","indice_lig":"9"}},{"type":"Feature","geometry":{"type":"Point","coordinates":[2.352829461254394,48.86673355595668]},"properties":{"nom_gares":"Réaumur Sébastopol","indice_lig":"4"}},{"type":"Feature","geometry":{"type":"Point","coordinates":[2.260515079251701,48.88470820133096]},"properties":{"nom_gares":"Pont de Neuilly","indice_lig":"1"}},{"type":"Feature","geometry":{"type":"Point","coordinates":[2.385508387668673,48.89738989158187]},"properties":{"nom_gares":"Porte de la Villette","indice_lig":"7"}},{"type":"Feature","geometry":{"type":"Point","coordinates":[2.313915119203154,48.86002845820203]},"properties":{"nom_gares":"Invalides","indice_lig":"13"}},{"type":"Feature","geometry":{"type":"Point","coordinates":[2.449189904479336,48.9063747711693]},"properties":{"nom_gares":"Bobigny Pablo Picasso","indice_lig":"5"}},{"type":"Feature","geometry":{"type":"Point","coordinates":[2.327164649607825,48.82818847631351]},"properties":{"nom_gares":"Alésia","indice_lig":"4"}},{"type":"Feature","geometry":{"type":"Point","coordinates":[2.45051152829059,48.789920466889434]},"properties":{"nom_gares":"Créteil-Université","indice_lig":"8"}},{"type":"Feature","geometry":{"type":"Point","coordinates":[2.320174757151551,48.89058718661181]},"properties":{"nom_gares":"Brochant","indice_lig":"13"}},{"type":"Feature","geometry":{"type":"Point","coordinates":[2.342608014423155,48.91900755521728]},"properties":{"nom_gares":"Carrefour Pleyel","indice_lig":"13"}},{"type":"Feature","geometry":{"type":"Point","coordinates":[2.317852783041332,48.84447014129587]},"properties":{"nom_gares":"Falguière","indice_lig":"12"}},{"type":"Feature","geometry":{"type":"Point","coordinates":[2.34057598204372,48.87497174554318]},"properties":{"nom_gares":"Le Peletier","indice_lig":"7"}},{"type":"Feature","geometry":{"type":"Point","coordinates":[2.285812444146408,48.85744869007581]},"properties":{"nom_gares":"Passy","indice_lig":"6"}},{"type":"Feature","geometry":{"type":"Point","coordinates":[2.354468813108209,48.869628863778516]},"properties":{"nom_gares":"Strasbourg-Saint-Denis","indice_lig":"4"}},{"type":"Feature","geometry":{"type":"Point","coordinates":[2.336232756868916,48.869637996887164]},"properties":{"nom_gares":"Quatre Septembre","indice_lig":"3"}},{"type":"Feature","geometry":{"type":"Point","coordinates":[2.356035794172797,48.929935889678696]},"properties":{"nom_gares":"Saint-Denis - Porte de Paris","indice_lig":"13"}},{"type":"Feature","geometry":{"type":"Point","coordinates":[2.284174448270923,48.93075700423553]},"properties":{"nom_gares":"Les Courtilles","indice_lig":"13"}},{"type":"Feature","geometry":{"type":"Point","coordinates":[2.441521809411031,48.86229941281971]},"properties":{"nom_gares":"Mairie de Montreuil","indice_lig":"9"}},{"type":"Feature","geometry":{"type":"Point","coordinates":[2.337164539445146,48.88224953318808]},"properties":{"nom_gares":"Pigalle","indice_lig":"12"}},{"type":"Feature","geometry":{"type":"Point","coordinates":[2.257744680363203,48.847971541497]},"properties":{"nom_gares":"Porte d'Auteuil","indice_lig":"10"}},{"type":"Feature","geometry":{"type":"Point","coordinates":[2.413132938342708,48.821897939434606]},"properties":{"nom_gares":"Charenton-Écoles","indice_lig":"8"}},{"type":"Feature","geometry":{"type":"Point","coordinates":[2.323167611246745,48.85849912371638]},"properties":{"nom_gares":"Solférino","indice_lig":"12"}},{"type":"Feature","geometry":{"type":"Point","coordinates":[2.37955401121414,48.840001388648794]},"properties":{"nom_gares":"Bercy","indice_lig":"14"}},{"type":"Feature","geometry":{"type":"Point","coordinates":[2.324353041157966,48.84373548931853]},"properties":{"nom_gares":"Montparnasse Bienvenüe","indice_lig":"12"}},{"type":"Feature","geometry":{"type":"Point","coordinates":[2.320984834266813,48.84232743772649]},"properties":{"nom_gares":"Montparnasse-Bienvenüe","indice_lig":"13"}},{"type":"Feature","geometry":{"type":"Point","coordinates":[2.330700709954214,48.851071370372]},"properties":{"nom_gares":"Saint-Sulpice","indice_lig":"4"}},{"type":"Feature","geometry":{"type":"Point","coordinates":[2.395062305425881,48.848474285974376]},"properties":{"nom_gares":"Nation","indice_lig":"2"}},{"type":"Feature","geometry":{"type":"Point","coordinates":[2.290127508824702,48.87533684211653]},"properties":{"nom_gares":"Argentine","indice_lig":"1"}},{"type":"Feature","geometry":{"type":"Point","coordinates":[2.392221222535117,48.90378388105197]},"properties":{"nom_gares":"Aubervilliers Pantin - Quatre Chemins","indice_lig":"7"}},{"type":"Feature","geometry":{"type":"Point","coordinates":[2.26913587274288,48.84715005481051]},"properties":{"nom_gares":"Église d'Auteuil","indice_lig":"10"}},{"type":"Feature","geometry":{"type":"Point","coordinates":[2.341108591634066,48.8608062912721]},"properties":{"nom_gares":"Louvre-Rivoli","indice_lig":"1"}},{"type":"Feature","geometry":{"type":"Point","coordinates":[2.360956490023829,48.85523625280238]},"properties":{"nom_gares":"Saint-Paul","indice_lig":"1"}},{"type":"Feature","geometry":{"type":"Point","coordinates":[2.33418954196825,48.86590673959417]},"properties":{"nom_gares":"Pyramides","indice_lig":"14"}},{"type":"Feature","geometry":{"type":"Point","coordinates":[2.286279577529783,48.92310377966602]},"properties":{"nom_gares":"Les Agnettes","indice_lig":"13"}},{"type":"Feature","geometry":{"type":"Point","coordinates":[2.287580162529652,48.863610937645674]},"properties":{"nom_gares":"Trocadéro","indice_lig":"6"}},{"type":"Feature","geometry":{"type":"Point","coordinates":[2.364993472400181,48.88094656356074]},"properties":{"nom_gares":"Louis Blanc","indice_lig":"7"}},{"type":"Feature","geometry":{"type":"Point","coordinates":[2.342232759368107,48.85855382636669]},"properties":{"nom_gares":"Pont Neuf","indice_lig":"7"}},{"type":"Feature","geometry":{"type":"Point","coordinates":[2.280413812210846,48.8971540959649]},"properties":{"nom_gares":"Pont de Levallois","indice_lig":"3"}},{"type":"Feature","geometry":{"type":"Point","coordinates":[2.445574101030144,48.80335523705089]},"properties":{"nom_gares":"Maisons-Alfort-Les Juilliottes","indice_lig":"8"}},{"type":"Feature","geometry":{"type":"Point","coordinates":[2.353818793592879,48.86940219665552]},"properties":{"nom_gares":"Strasbourg-Saint-Denis","indice_lig":"9"}},{"type":"Feature","geometry":{"type":"Point","coordinates":[2.356736756794993,48.86558647849898]},"properties":{"nom_gares":"Arts et Métiers","indice_lig":"3"}},{"type":"Feature","geometry":{"type":"Point","coordinates":[2.350612999325322,48.88380394240113]},"properties":{"nom_gares":"Barbès-Rochechouart","indice_lig":"2"}},{"type":"Feature","geometry":{"type":"Point","coordinates":[2.459363129076404,48.78000282890859]},"properties":{"nom_gares":"Créteil–Préfecture","indice_lig":"8"}},{"type":"Feature","geometry":{"type":"Point","coordinates":[2.348036565400402,48.85763141070005]},"properties":{"nom_gares":"Châtelet","indice_lig":"11"}},{"type":"Feature","geometry":{"type":"Point","coordinates":[2.402333164555186,48.83711700698872]},"properties":{"nom_gares":"Michel Bizot","indice_lig":"8"}},{"type":"Feature","geometry":{"type":"Point","coordinates":[2.356121938797104,48.8309272410005]},"properties":{"nom_gares":"Place d'Italie","indice_lig":"6"}},{"type":"Feature","geometry":{"type":"Point","coordinates":[2.32877802689008,48.84494263342596]},"properties":{"nom_gares":"Notre-Dame-des-Champs","indice_lig":"12"}},{"type":"Feature","geometry":{"type":"Point","coordinates":[2.367901414841736,48.86496414577929]},"properties":{"nom_gares":"Oberkampf","indice_lig":"5"}},{"type":"Feature","geometry":{"type":"Point","coordinates":[2.371913980100838,48.85987362347133]},"properties":{"nom_gares":"Richard Lenoir","indice_lig":"5"}},{"type":"Feature","geometry":{"type":"Point","coordinates":[2.270109138941894,48.855485050404425]},"properties":{"nom_gares":"Ranelagh","indice_lig":"9"}},{"type":"Feature","geometry":{"type":"Point","coordinates":[2.375747983215603,48.829990199899186]},"properties":{"nom_gares":"Bibliothèque François Mitterrand","indice_lig":"14"}},{"type":"Feature","geometry":{"type":"Point","coordinates":[2.367372038565469,48.88432566304799]},"properties":{"nom_gares":"Stalingrad","indice_lig":"5"}},{"type":"Feature","geometry":{"type":"Point","coordinates":[2.237436786980607,48.83173796437048]},"properties":{"nom_gares":"Billancourt","indice_lig":"9"}},{"type":"Feature","geometry":{"type":"Point","coordinates":[2.237018056395014,48.89218707644951]},"properties":{"nom_gares":"La Défense","indice_lig":"1"}},{"type":"Feature","geometry":{"type":"Point","coordinates":[2.389620014061439,48.83904114371398]},"properties":{"nom_gares":"Dugommier","indice_lig":"6"}},{"type":"Feature","geometry":{"type":"Point","coordinates":[2.381614511928965,48.87851411402383]},"properties":{"nom_gares":"Buttes-Chaumont","indice_lig":"7b"}},{"type":"Feature","geometry":{"type":"Point","coordinates":[2.313894130481615,48.86760214522151]},"properties":{"nom_gares":"Champs-Élysées – Clemenceau","indice_lig":"13"}},{"type":"Feature","geometry":{"type":"Point","coordinates":[2.385882449326147,48.86312321464208]},"properties":{"nom_gares":"Père Lachaise","indice_lig":"3"}},{"type":"Feature","geometry":{"type":"Point","coordinates":[2.355643643033711,48.83143363013256]},"properties":{"nom_gares":"Place d'Italie","indice_lig":"7"}},{"type":"Feature","geometry":{"type":"Point","coordinates":[2.331493987087091,48.87130850300574]},"properties":{"nom_gares":"Opéra","indice_lig":"3"}},{"type":"Feature","geometry":{"type":"Point","coordinates":[2.304674440528396,48.88380920123339]},"properties":{"nom_gares":"Wagram","indice_lig":"3"}},{"type":"Feature","geometry":{"type":"Point","coordinates":[2.301107516242396,48.839516585402485]},"properties":{"nom_gares":"Vaugirard","indice_lig":"12"}},{"type":"Feature","geometry":{"type":"Point","coordinates":[2.390482133980388,48.84406559730793]},"properties":{"nom_gares":"Montgallet","indice_lig":"8"}},{"type":"Feature","geometry":{"type":"Point","coordinates":[2.363953196602166,48.80468812091137]},"properties":{"nom_gares":"Villejuif - Léo Lagrange","indice_lig":"7"}},{"type":"Feature","geometry":{"type":"Point","coordinates":[2.273665557499755,48.82430937109403]},"properties":{"nom_gares":"Mairie d'Issy","indice_lig":"12"}},{"type":"Feature","geometry":{"type":"Point","coordinates":[2.405383210626772,48.83478515808142]},"properties":{"nom_gares":"Porte Dorée","indice_lig":"8"}},{"type":"Feature","geometry":{"type":"Point","coordinates":[2.312791961501292,48.89498081072532]},"properties":{"nom_gares":"Porte de Clichy","indice_lig":"14"}},{"type":"Feature","geometry":{"type":"Point","coordinates":[2.314890730058881,48.86038127919816]},"properties":{"nom_gares":"Invalides","indice_lig":"8"}},{"type":"Feature","geometry":{"type":"Point","coordinates":[2.467356117418251,48.88224373133741]},"properties":{"nom_gares":"Coteaux Beauclair","indice_lig":"11"}},{"type":"Feature","geometry":{"type":"Point","coordinates":[2.316424352050892,48.84705255542817]},"properties":{"nom_gares":"Duroc","indice_lig":"13"}},{"type":"Feature","geometry":{"type":"Point","coordinates":[2.323175680856618,48.86616711494919]},"properties":{"nom_gares":"Concorde","indice_lig":"12"}},{"type":"Feature","geometry":{"type":"Point","coordinates":[2.34961756415984,48.863972478817246]},"properties":{"nom_gares":"Étienne Marcel","indice_lig":"4"}},{"type":"Feature","geometry":{"type":"Point","coordinates":[2.391784450963432,48.88841747876783]},"properties":{"nom_gares":"Porte de Pantin","indice_lig":"5"}},{"type":"Feature","geometry":{"type":"Point","coordinates":[2.351358915532991,48.8664963437902]},"properties":{"nom_gares":"Réaumur Sébastopol","indice_lig":"3"}},{"type":"Feature","geometry":{"type":"Point","coordinates":[2.37673072170184,48.87228310892801]},"properties":{"nom_gares":"Belleville","indice_lig":"2"}},{"type":"Feature","geometry":{"type":"Point","coordinates":[2.434538451473474,48.85778351458649]},"properties":{"nom_gares":"Croix de Chavaux","indice_lig":"9"}},{"type":"Feature","geometry":{"type":"Point","coordinates":[2.378716923224645,48.884970562766206]},"properties":{"nom_gares":"Laumière","indice_lig":"5"}},{"type":"Feature","geometry":{"type":"Point","coordinates":[2.34456106066273,48.87125654594185]},"properties":{"nom_gares":"Grands Boulevards","indice_lig":"9"}},{"type":"Feature","geometry":{"type":"Point","coordinates":[2.338233468504618,48.88222543392857]},"properties":{"nom_gares":"Pigalle","indice_lig":"2"}},{"type":"Feature","geometry":{"type":"Point","coordinates":[2.357633204680054,48.880195487135886]},"properties":{"nom_gares":"Gare du Nord","indice_lig":"5"}},{"type":"Feature","geometry":{"type":"Point","coordinates":[2.374495966260425,48.880667463456206]},"properties":{"nom_gares":"Bolivar","indice_lig":"7b"}},{"type":"Feature","geometry":{"type":"Point","coordinates":[2.369513568156525,48.85343942756841]},"properties":{"nom_gares":"Bastille","indice_lig":"8"}},{"type":"Feature","geometry":{"type":"Point","coordinates":[2.429205166348,48.845470707583566]},"properties":{"nom_gares":"Bérault","indice_lig":"1"}},{"type":"Feature","geometry":{"type":"Point","coordinates":[2.404409088781864,48.91494975727623]},"properties":{"nom_gares":"Fort d'Aubervilliers","indice_lig":"7"}},{"type":"Feature","geometry":{"type":"Point","coordinates":[2.35160647530219,48.84023383632875]},"properties":{"nom_gares":"Censier-Daubenton","indice_lig":"7"}},{"type":"Feature","geometry":{"type":"Point","coordinates":[2.298625127144874,48.84957521390955]},"properties":{"nom_gares":"La Motte Picquet-Grenelle","indice_lig":"10"}},{"type":"Feature","geometry":{"type":"Point","coordinates":[2.322001788877926,48.87447567664767]},"properties":{"nom_gares":"Saint-Augustin","indice_lig":"9"}},{"type":"Feature","geometry":{"type":"Point","coordinates":[2.318053613337433,48.80363023251622]},"properties":{"nom_gares":"Bagneux - Lucie Aubrac","indice_lig":"4"}},{"type":"Feature","geometry":{"type":"Point","coordinates":[2.380735606395095,48.913710545549606]},"properties":{"nom_gares":"Mairie d'Aubervilliers","indice_lig":"12"}},{"type":"Feature","geometry":{"type":"Point","coordinates":[2.327543081726971,48.873513389595466]},"properties":{"nom_gares":"Havre-Caumartin","indice_lig":"3"}},{"type":"Feature","geometry":{"type":"Point","coordinates":[2.322491748462238,48.838631646237154]},"properties":{"nom_gares":"Gaîté","indice_lig":"13"}},{"type":"Feature","geometry":{"type":"Point","coordinates":[2.370157961739611,48.88246524557207]},"properties":{"nom_gares":"Jaurès","indice_lig":"7b"}},{"type":"Feature","geometry":{"type":"Point","coordinates":[2.264218775687729,48.84793480789207]},"properties":{"nom_gares":"Michel Ange-Auteuil","indice_lig":"10"}},{"type":"Feature","geometry":{"type":"Point","coordinates":[2.326792785027681,48.84687823885142]},"properties":{"nom_gares":"Saint-Placide","indice_lig":"4"}},{"type":"Feature","geometry":{"type":"Point","coordinates":[2.346552336353212,48.86751302499845]},"properties":{"nom_gares":"Sentier","indice_lig":"3"}},{"type":"Feature","geometry":{"type":"Point","coordinates":[2.3446670737483,48.882972767827276]},"properties":{"nom_gares":"Anvers","indice_lig":"2"}},{"type":"Feature","geometry":{"type":"Point","coordinates":[2.30407039121876,48.87932978868225]},"properties":{"nom_gares":"Courcelles","indice_lig":"2"}},{"type":"Feature","geometry":{"type":"Point","coordinates":[2.317449187923372,48.80970399753329]},"properties":{"nom_gares":"Barbara","indice_lig":"4"}},{"type":"Feature","geometry":{"type":"Point","coordinates":[2.371933128614294,48.883193321300105]},"properties":{"nom_gares":"Jaurès","indice_lig":"5"}},{"type":"Feature","geometry":{"type":"Point","coordinates":[2.384699760132844,48.855094494476994]},"properties":{"nom_gares":"Charonne","indice_lig":"9"}},{"type":"Feature","geometry":{"type":"Point","coordinates":[2.249792769009765,48.88813847761218]},"properties":{"nom_gares":"Esplanade de la Défense","indice_lig":"1"}},{"type":"Feature","geometry":{"type":"Point","coordinates":[2.388566870479197,48.87949310793359]},"properties":{"nom_gares":"Botzaris","indice_lig":"7b"}},{"type":"Feature","geometry":{"type":"Point","coordinates":[2.394012398359364,48.88181610818685]},"properties":{"nom_gares":"Danube","indice_lig":"7b"}},{"type":"Feature","geometry":{"type":"Point","coordinates":[2.351577562994997,48.857477982529346]},"properties":{"nom_gares":"Hôtel de Ville","indice_lig":"1"}},{"type":"Feature","geometry":{"type":"Point","coordinates":[2.29416201539428,48.8647940649002]},"properties":{"nom_gares":"Iéna","indice_lig":"9"}},{"type":"Feature","geometry":{"type":"Point","coordinates":[2.261623492404886,48.84524756545478]},"properties":{"nom_gares":"Michel Ange-Molitor","indice_lig":"10"}},{"type":"Feature","geometry":{"type":"Point","coordinates":[2.333924890479715,48.91196489788089]},"properties":{"nom_gares":"Mairie de Saint-Ouen","indice_lig":"13"}},{"type":"Feature","geometry":{"type":"Point","coordinates":[2.231028100202621,48.829746119994304]},"properties":{"nom_gares":"Pont de Sèvres","indice_lig":"9"}},{"type":"Feature","geometry":{"type":"Point","coordinates":[2.364247995104706,48.86702678847436]},"properties":{"nom_gares":"République","indice_lig":"3"}},{"type":"Feature","geometry":{"type":"Point","coordinates":[2.358057907074739,48.8762727026041]},"properties":{"nom_gares":"Gare de l'Est","indice_lig":"7"}},{"type":"Feature","geometry":{"type":"Point","coordinates":[2.400310403025077,48.83273670175476]},"properties":{"nom_gares":"Porte de Charenton","indice_lig":"8"}},{"type":"Feature","geometry":{"type":"Point","coordinates":[2.321801731063168,48.88233342370702]},"properties":{"nom_gares":"Rome","indice_lig":"2"}}]}